$GPRMC,090058,A,4230.78960,N,08326.67600,W,016.2,349.0,101119,0,W,*65
$GPRMC,090059,A,4230.79414,N,08326.67720,W,016.2,349.0,101119,0,W,*68
$GPRMC,090100,A,4230.79868,N,08326.67840,W,016.2,349.0,101119,0,W,*6B
$GPRMC,090101,A,4230.80322,N,08326.67960,W,016.2,349.0,101119,0,W,*6A
$GPRMC,090102,A,4230.80776,N,08326.68080,W,016.2,349.0,101119,0,W,*64
$GPRMC,090103,A,4230.81229,N,08326.68199,W,016.2,349.0,101119,0,W,*62
$GPRMC,090104,A,4230.81683,N,08326.68319,W,016.2,349.0,101119,0,W,*6B;$GPRMC,090104,A,4230.84815,N,08326.67270,W,001.6,359.3,101119,0,W,*6E
$GPRMC,090105,A,4230.82140,N,08326.68440,W,016.2,357.2,101119,0,W,*67;$GPRMC,090105,A,4230.84860,N,08326.67271,W,001.6,359.3,101119,0,W,*6C
$GPRMC,090106,A,4230.82590,N,08326.68470,W,016.2,357.2,101119,0,W,*6E;$GPRMC,090106,A,4230.84905,N,08326.67272,W,001.6,359.3,101119,0,W,*6E
$GPRMC,090107,A,4230.83040,N,08326.68500,W,016.2,358.8,101119,0,W,*65;$GPRMC,090107,A,4230.84950,N,08326.67272,W,001.6,359.3,101119,0,W,*6F
$GPRMC,090108,A,4230.83579,N,08326.68515,W,016.2,358.8,101119,0,W,*61;$GPRMC,090108,A,4230.84995,N,08326.67273,W,001.6,359.3,101119,0,W,*68
$GPRMC,090109,A,4230.84119,N,08326.68530,W,016.2,358.8,101119,0,W,*62;$GPRMC,090109,A,4230.85040,N,08326.67274,W,001.6,359.3,101119,0,W,*6E
$GPRMC,090110,A,4230.84658,N,08326.68545,W,016.2,358.8,101119,0,W,*6A;$GPRMC,090110,A,4230.85085,N,08326.67274,W,001.6,359.3,101119,0,W,*6F
$GPRMC,090111,A,4230.85200,N,08326.68560,W,016.2,088.8,101119,0,W,*6A;$GPRMC,090111,A,4230.85130,N,08326.67275,W,001.6,359.3,101119,0,W,*60
$GPRMC,090112,A,4230.85210,N,08326.67918,W,016.2,088.8,101119,0,W,*64;$GPRMC,090112,A,4230.85175,N,08326.67276,W,001.6,359.3,101119,0,W,*61
$GPRMC,090113,A,4230.85220,N,08326.67277,W,016.2,088.8,101119,0,W,*64;$GPRMC,090113,A,4230.85220,N,08326.67277,W,001.6,359.3,101119,0,W,*62
$GPRMC,090114,A,4230.85230,N,08326.66635,W,016.2,088.8,101119,0,W,*61
$GPRMC,090115,A,4230.85240,N,08326.65993,W,016.2,088.8,101119,0,W,*67
$GPRMC,090116,A,4230.85250,N,08326.65352,W,016.2,088.8,101119,0,W,*62
$GPRMC,090117,A,4230.85260,N,08326.64720,W,016.2,087.3,101119,0,W,*64
$GPRMC,090118,A,4230.85283,N,08326.64081,W,016.2,087.3,101119,0,W,*6A
$GPRMC,090119,A,4230.85305,N,08326.63442,W,016.2,087.3,101119,0,W,*68
$GPRMC,090120,A,4230.85328,N,08326.62802,W,016.2,087.3,101119,0,W,*64
$GPRMC,090121,A,4230.85350,N,08326.62163,W,016.2,087.3,101119,0,W,*64
$GPRMC,090122,A,4230.85373,N,08326.61524,W,016.2,087.3,101119,0,W,*62
$GPRMC,090123,A,4230.85395,N,08326.60885,W,016.2,087.3,101119,0,W,*6C
$GPRMC,090124,A,4230.85418,N,08326.60246,W,016.2,087.3,101119,0,W,*6C
$GPRMC,090125,A,4230.85440,N,08326.59620,W,016.2,085.9,101119,0,W,*66
$GPRMC,090126,A,4230.85480,N,08326.58858,W,016.2,085.9,101119,0,W,*69
$GPRMC,090127,A,4230.85520,N,08326.58096,W,016.2,085.9,101119,0,W,*69
$GPRMC,090128,A,4230.85560,N,08326.57340,W,016.2,087.8,101119,0,W,*66
$GPRMC,090129,A,4230.85580,N,08326.56638,W,016.2,087.8,101119,0,W,*62
$GPRMC,090130,A,4230.85600,N,08326.55936,W,016.2,087.8,101119,0,W,*63
$GPRMC,090131,A,4230.85620,N,08326.55240,W,016.2,159.8,101119,0,W,*68
$GPRMC,090132,A,4230.85140,N,08326.55000,W,016.2,152.0,101119,0,W,*6F
$GPRMC,090133,A,4230.84600,N,08326.54610,W,016.2,152.0,101119,0,W,*6A
$GPRMC,090134,A,4230.84060,N,08326.54220,W,016.2,139.5,101119,0,W,*62
$GPRMC,090135,A,4230.83680,N,08326.53780,W,016.2,139.5,101119,0,W,*64
$GPRMC,090136,A,4230.83300,N,08326.53340,W,016.2,139.5,101119,0,W,*62
$GPRMC,090137,A,4230.82920,N,08326.52900,W,016.2,131.2,101119,0,W,*6A
$GPRMC,090138,A,4230.82572,N,08326.52359,W,016.2,131.2,101119,0,W,*68
$GPRMC,090139,A,4230.82223,N,08326.51819,W,016.2,131.2,101119,0,W,*66
$GPRMC,090140,A,4230.81875,N,08326.51278,W,016.2,131.2,101119,0,W,*6F
$GPRMC,090141,A,4230.81527,N,08326.50738,W,016.2,131.2,101119,0,W,*64
$GPRMC,090142,A,4230.81180,N,08326.50200,W,016.2,135.1,101119,0,W,*67
$GPRMC,090143,A,4230.80840,N,08326.49740,W,016.2,135.1,101119,0,W,*6B
$GPRMC,090144,A,4230.80499,N,08326.49279,W,016.2,135.1,101119,0,W,*6B
$GPRMC,090145,A,4230.80160,N,08326.48820,W,016.2,151.1,101119,0,W,*6C
$GPRMC,090146,A,4230.79680,N,08326.48460,W,016.2,151.1,101119,0,W,*68
$GPRMC,090147,A,4230.79200,N,08326.48100,W,016.2,151.1,101119,0,W,*66
$GPRMC,090148,A,4230.78720,N,08326.47740,W,016.2,162.2,101119,0,W,*61
$GPRMC,090149,A,4230.78260,N,08326.47540,W,016.2,162.2,101119,0,W,*63
$GPRMC,090150,A,4230.77801,N,08326.47340,W,016.2,162.2,101119,0,W,*6F
$GPRMC,090151,A,4230.77340,N,08326.47140,W,016.2,176.5,101119,0,W,*60
$GPRMC,090152,A,4230.76860,N,08326.47100,W,016.2,176.5,101119,0,W,*6F
$GPRMC,090153,A,4230.76381,N,08326.47060,W,016.2,176.5,101119,0,W,*6D
$GPRMC,090154,A,4230.75900,N,08326.47020,W,016.2,184.4,101119,0,W,*62
$GPRMC,090155,A,4230.75331,N,08326.47080,W,016.2,184.4,101119,0,W,*61
$GPRMC,090156,A,4230.74760,N,08326.47140,W,016.2,185.1,101119,0,W,*6A
$GPRMC,090157,A,4230.74260,N,08326.47200,W,016.2,185.1,101119,0,W,*69
$GPRMC,090158,A,4230.73761,N,08326.47260,W,016.2,185.1,101119,0,W,*63
$GPRMC,090159,A,4230.73260,N,08326.47320,W,016.2,176.0,101119,0,W,*6E
$GPRMC,090200,A,4230.72631,N,08326.47260,W,016.2,176.0,101119,0,W,*65
$GPRMC,090201,A,4230.72000,N,08326.47200,W,016.2,173.2,101119,0,W,*61
$GPRMC,090202,A,4230.71484,N,08326.47116,W,016.2,173.2,101119,0,W,*6D
$GPRMC,090203,A,4230.70969,N,08326.47032,W,016.2,173.2,101119,0,W,*64
$GPRMC,090204,A,4230.70453,N,08326.46948,W,016.2,173.2,101119,0,W,*62
$GPRMC,090205,A,4230.69938,N,08326.46864,W,016.2,173.2,101119,0,W,*64
$GPRMC,090206,A,4230.69420,N,08326.46780,W,016.2,165.8,101119,0,W,*6B
$GPRMC,090207,A,4230.68940,N,08326.46615,W,016.2,165.8,101119,0,W,*6D
$GPRMC,090208,A,4230.68461,N,08326.46450,W,016.2,165.8,101119,0,W,*6F
$GPRMC,090209,A,4230.67981,N,08326.46285,W,016.2,165.8,101119,0,W,*6C
$GPRMC,090210,A,4230.67500,N,08326.46120,W,016.2,261.4,101119,0,W,*66
$GPRMC,090211,A,4230.67380,N,08326.47200,W,016.2,259.4,101119,0,W,*62
$GPRMC,090212,A,4230.67290,N,08326.47852,W,016.2,259.4,101119,0,W,*6C
$GPRMC,090213,A,4230.67200,N,08326.48503,W,016.2,259.4,101119,0,W,*62
$GPRMC,090214,A,4230.67109,N,08326.49155,W,016.2,259.4,101119,0,W,*69
$GPRMC,090215,A,4230.67019,N,08326.49807,W,016.2,259.4,101119,0,W,*66
$GPRMC,090216,A,4230.66929,N,08326.50458,W,016.2,259.4,101119,0,W,*60
$GPRMC,090217,A,4230.66840,N,08326.51100,W,016.2,261.2,101119,0,W,*6B
$GPRMC,090218,A,4230.66766,N,08326.51742,W,016.2,261.2,101119,0,W,*6F
$GPRMC,090219,A,4230.66693,N,08326.52383,W,016.2,261.2,101119,0,W,*6F
$GPRMC,090220,A,4230.66619,N,08326.53025,W,016.2,261.2,101119,0,W,*69
$GPRMC,090221,A,4230.66546,N,08326.53667,W,016.2,261.2,101119,0,W,*61
$GPRMC,090222,A,4230.66472,N,08326.54308,W,016.2,261.2,101119,0,W,*6F
$GPRMC,090223,A,4230.66399,N,08326.54950,W,016.2,261.2,101119,0,W,*6B
$GPRMC,090224,A,4230.66325,N,08326.55592,W,016.2,261.2,101119,0,W,*68
$GPRMC,090225,A,4230.66252,N,08326.56233,W,016.2,261.2,101119,0,W,*67
$GPRMC,090226,A,4230.66180,N,08326.56860,W,016.2,265.0,101119,0,W,*62
$GPRMC,090227,A,4230.66140,N,08326.57482,W,016.2,265.0,101119,0,W,*6E
$GPRMC,090228,A,4230.66100,N,08326.58103,W,016.2,265.0,101119,0,W,*66
$GPRMC,090229,A,4230.66060,N,08326.58720,W,016.2,266.2,101119,0,W,*66
$GPRMC,090230,A,4230.66030,N,08326.59329,W,016.2,266.2,101119,0,W,*67
$GPRMC,090231,A,4230.66000,N,08326.59938,W,016.2,266.2,101119,0,W,*6F
$GPRMC,090232,A,4230.65970,N,08326.60547,W,016.2,266.2,101119,0,W,*6F
$GPRMC,090233,A,4230.65940,N,08326.61156,W,016.2,266.2,101119,0,W,*68
$GPRMC,090234,A,4230.65910,N,08326.61766,W,016.2,266.2,101119,0,W,*6F
$GPRMC,090235,A,4230.65880,N,08326.62375,W,016.2,266.2,101119,0,W,*63
$GPRMC,090236,A,4230.65849,N,08326.62984,W,016.2,266.2,101119,0,W,*61
$GPRMC,090237,A,4230.65819,N,08326.63593,W,016.2,266.2,101119,0,W,*6E
$GPRMC,090238,A,4230.65789,N,08326.64202,W,016.2,266.2,101119,0,W,*6F
$GPRMC,090239,A,4230.65759,N,08326.64811,W,016.2,266.2,101119,0,W,*6B
$GPRMC,090240,A,4230.65729,N,08326.65420,W,016.2,266.2,101119,0,W,*6D
$GPRMC,090241,A,4230.65699,N,08326.66029,W,016.2,266.2,101119,0,W,*68
$GPRMC,090242,A,4230.65669,N,08326.66638,W,016.2,266.2,101119,0,W,*62
$GPRMC,090243,A,4230.65639,N,08326.67247,W,016.2,266.2,101119,0,W,*6B
$GPRMC,090244,A,4230.65609,N,08326.67857,W,016.2,266.2,101119,0,W,*64
$GPRMC,090245,A,4230.65580,N,08326.68440,W,016.2,281.5,101119,0,W,*6C
$GPRMC,090246,A,4230.65670,N,08326.69042,W,016.2,281.5,101119,0,W,*64
$GPRMC,090247,A,4230.65760,N,08326.69640,W,016.2,269.0,101119,0,W,*62
$GPRMC,090248,A,4230.65751,N,08326.70285,W,016.2,269.0,101119,0,W,*6A
$GPRMC,090249,A,4230.65743,N,08326.70929,W,016.2,269.0,101119,0,W,*65
$GPRMC,090250,A,4230.65734,N,08326.71574,W,016.2,269.0,101119,0,W,*68
$GPRMC,090251,A,4230.65726,N,08326.72218,W,016.2,269.0,101119,0,W,*64
$GPRMC,090252,A,4230.65717,N,08326.72863,W,016.2,269.0,101119,0,W,*63
$GPRMC,090253,A,4230.65708,N,08326.73507,W,016.2,269.0,101119,0,W,*62
$GPRMC,090254,A,4230.65700,N,08326.74140,W,016.2,269.2,101119,0,W,*6F
$GPRMC,090255,A,4230.65693,N,08326.74755,W,016.2,269.2,101119,0,W,*67
$GPRMC,090256,A,4230.65687,N,08326.75370,W,016.2,269.2,101119,0,W,*63
$GPRMC,090257,A,4230.65680,N,08326.75985,W,016.2,269.2,101119,0,W,*65
$GPRMC,090258,A,4230.65673,N,08326.76600,W,016.2,269.2,101119,0,W,*67
$GPRMC,090259,A,4230.65667,N,08326.77215,W,016.2,269.2,101119,0,W,*62
$GPRMC,090300,A,4230.65660,N,08326.77830,W,016.2,269.2,101119,0,W,*65
$GPRMC,090301,A,4230.65653,N,08326.78445,W,016.2,269.2,101119,0,W,*65
$GPRMC,090302,A,4230.65647,N,08326.79060,W,016.2,269.2,101119,0,W,*61
$GPRMC,090303,A,4230.65640,N,08326.79660,W,016.2,266.4,101119,0,W,*68
$GPRMC,090304,A,4230.65610,N,08326.80314,W,016.2,266.4,101119,0,W,*6A
$GPRMC,090305,A,4230.65580,N,08326.80968,W,016.2,266.4,101119,0,W,*60
$GPRMC,090306,A,4230.65550,N,08326.81623,W,016.2,266.4,101119,0,W,*6F
$GPRMC,090307,A,4230.65520,N,08326.82277,W,016.2,266.4,101119,0,W,*6F
$GPRMC,090308,A,4230.65490,N,08326.82931,W,016.2,266.4,101119,0,W,*63
$GPRMC,090309,A,4230.65460,N,08326.83585,W,016.2,266.4,101119,0,W,*6F
$GPRMC,090310,A,4230.65429,N,08326.84240,W,016.2,266.4,101119,0,W,*63
$GPRMC,090311,A,4230.65400,N,08326.84880,W,016.2,268.3,101119,0,W,*66
$GPRMC,090312,A,4230.65387,N,08326.85508,W,016.2,268.3,101119,0,W,*61
$GPRMC,090313,A,4230.65373,N,08326.86137,W,016.2,268.3,101119,0,W,*60
$GPRMC,090314,A,4230.65360,N,08326.86765,W,016.2,268.3,101119,0,W,*64
$GPRMC,090315,A,4230.65347,N,08326.87393,W,016.2,268.3,101119,0,W,*6C
$GPRMC,090316,A,4230.65333,N,08326.88022,W,016.2,268.3,101119,0,W,*6A
$GPRMC,090317,A,4230.65320,N,08326.88650,W,016.2,268.3,101119,0,W,*6A
$GPRMC,090318,A,4230.65306,N,08326.89278,W,016.2,268.3,101119,0,W,*6E
$GPRMC,090319,A,4230.65293,N,08326.89907,W,016.2,268.3,101119,0,W,*61
$GPRMC,090320,A,4230.65280,N,08326.90520,W,016.2,268.6,101119,0,W,*6D
$GPRMC,090321,A,4230.65268,N,08326.91206,W,016.2,268.6,101119,0,W,*68
$GPRMC,090322,A,4230.65256,N,08326.91892,W,016.2,268.6,101119,0,W,*61
$GPRMC,090323,A,4230.65244,N,08326.92577,W,016.2,268.6,101119,0,W,*66
$GPRMC,090324,A,4230.65232,N,08326.93263,W,016.2,268.6,101119,0,W,*63
$GPRMC,090325,A,4230.65220,N,08326.93940,W,016.2,268.1,101119,0,W,*6C
$GPRMC,090326,A,4230.65205,N,08326.94564,W,016.2,268.1,101119,0,W,*65
$GPRMC,090327,A,4230.65190,N,08326.95188,W,016.2,268.1,101119,0,W,*6C
$GPRMC,090328,A,4230.65175,N,08326.95812,W,016.2,268.1,101119,0,W,*62
$GPRMC,090329,A,4230.65160,N,08326.96437,W,016.2,268.1,101119,0,W,*6F
$GPRMC,090330,A,4230.65145,N,08326.97061,W,016.2,268.1,101119,0,W,*66
$GPRMC,090331,A,4230.65130,N,08326.97685,W,016.2,268.1,101119,0,W,*69
$GPRMC,090332,A,4230.65115,N,08326.98309,W,016.2,268.1,101119,0,W,*63
$GPRMC,090333,A,4230.65100,N,08326.98920,W,016.2,262.8,101119,0,W,*64
$GPRMC,090334,A,4230.65040,N,08326.99570,W,016.2,262.8,101119,0,W,*6E
$GPRMC,090335,A,4230.64980,N,08327.00219,W,016.2,262.8,101119,0,W,*62
$GPRMC,090336,A,4230.64920,N,08327.00869,W,016.2,262.8,101119,0,W,*66
$GPRMC,090337,A,4230.64859,N,08327.01519,W,016.2,262.8,101119,0,W,*63
$GPRMC,090338,A,4230.64800,N,08327.02160,W,016.2,267.6,101119,0,W,*62
$GPRMC,090339,A,4230.64780,N,08327.02822,W,016.2,267.6,101119,0,W,*6B
$GPRMC,090340,A,4230.64760,N,08327.03483,W,016.2,267.6,101119,0,W,*6D
$GPRMC,090341,A,4230.64740,N,08327.04145,W,016.2,267.6,101119,0,W,*66
$GPRMC,090342,A,4230.64720,N,08327.04807,W,016.2,267.6,101119,0,W,*6C
$GPRMC,090343,A,4230.64700,N,08327.05469,W,016.2,267.6,101119,0,W,*6A
$GPRMC,090344,A,4230.64680,N,08327.06130,W,016.2,267.6,101119,0,W,*6E
$GPRMC,090345,A,4230.64660,N,08327.06792,W,016.2,267.6,101119,0,W,*6F
$GPRMC,090346,A,4230.64640,N,08327.07454,W,016.2,267.6,101119,0,W,*66
$GPRMC,090347,A,4230.64620,N,08327.08100,W,016.2,269.0,101119,0,W,*62
$GPRMC,090348,A,4230.64611,N,08327.08753,W,016.2,269.0,101119,0,W,*6F
$GPRMC,090349,A,4230.64603,N,08327.09406,W,016.2,269.0,101119,0,W,*6F
$GPRMC,090350,A,4230.64594,N,08327.10059,W,016.2,269.0,101119,0,W,*6C
$GPRMC,090351,A,4230.64586,N,08327.10713,W,016.2,269.0,101119,0,W,*67
$GPRMC,090352,A,4230.64577,N,08327.11366,W,016.2,269.0,101119,0,W,*6D
$GPRMC,090353,A,4230.64568,N,08327.12019,W,016.2,269.0,101119,0,W,*6A
$GPRMC,090354,A,4230.64560,N,08327.12660,W,016.2,267.8,101119,0,W,*6B
$GPRMC,090355,A,4230.64542,N,08327.13286,W,016.2,267.8,101119,0,W,*67
$GPRMC,090356,A,4230.64525,N,08327.13913,W,016.2,267.8,101119,0,W,*62
$GPRMC,090357,A,4230.64507,N,08327.14539,W,016.2,267.8,101119,0,W,*60
$GPRMC,090358,A,4230.64489,N,08327.15165,W,016.2,267.8,101119,0,W,*64
$GPRMC,090359,A,4230.64472,N,08327.15792,W,016.2,267.8,101119,0,W,*6F
$GPRMC,090400,A,4230.64454,N,08327.16418,W,016.2,267.8,101119,0,W,*62
$GPRMC,090401,A,4230.64436,N,08327.17045,W,016.2,267.8,101119,0,W,*6A
$GPRMC,090402,A,4230.64418,N,08327.17671,W,016.2,267.8,101119,0,W,*64
$GPRMC,090403,A,4230.64401,N,08327.18297,W,016.2,267.8,101119,0,W,*6E
$GPRMC,090404,A,4230.64383,N,08327.18924,W,016.2,267.8,101119,0,W,*67
$GPRMC,090405,A,4230.64365,N,08327.19550,W,016.2,267.8,101119,0,W,*60
$GPRMC,090406,A,4230.64348,N,08327.20176,W,016.2,267.8,101119,0,W,*66
$GPRMC,090407,A,4230.64330,N,08327.20803,W,016.2,267.8,101119,0,W,*63
$GPRMC,090408,A,4230.64312,N,08327.21429,W,016.2,267.8,101119,0,W,*69
$GPRMC,090409,A,4230.64295,N,08327.22055,W,016.2,267.8,101119,0,W,*6A
$GPRMC,090410,A,4230.64277,N,08327.22682,W,016.2,267.8,101119,0,W,*62
$GPRMC,090411,A,4230.64260,N,08327.23280,W,016.2,268.1,101119,0,W,*64
$GPRMC,090412,A,4230.64245,N,08327.23903,W,016.2,268.1,101119,0,W,*60
$GPRMC,090413,A,4230.64230,N,08327.24526,W,016.2,268.1,101119,0,W,*6F
$GPRMC,090414,A,4230.64215,N,08327.25149,W,016.2,268.1,101119,0,W,*63
$GPRMC,090415,A,4230.64200,N,08327.25772,W,016.2,268.1,101119,0,W,*68
$GPRMC,090416,A,4230.64185,N,08327.26395,W,016.2,268.1,101119,0,W,*6B
$GPRMC,090417,A,4230.64170,N,08327.27018,W,016.2,268.1,101119,0,W,*67
$GPRMC,090418,A,4230.64155,N,08327.27642,W,016.2,268.1,101119,0,W,*66
$GPRMC,090419,A,4230.64140,N,08327.28265,W,016.2,268.1,101119,0,W,*6D
$GPRMC,090420,A,4230.64125,N,08327.28888,W,016.2,268.1,101119,0,W,*6D
$GPRMC,090421,A,4230.64110,N,08327.29511,W,016.2,268.1,101119,0,W,*66
$GPRMC,090422,A,4230.64095,N,08327.30134,W,016.2,268.1,101119,0,W,*62
$GPRMC,090423,A,4230.64080,N,08327.30757,W,016.2,268.1,101119,0,W,*64
$GPRMC,090424,A,4230.64065,N,08327.31380,W,016.2,268.1,101119,0,W,*67
$GPRMC,090425,A,4230.64050,N,08327.32003,W,016.2,268.1,101119,0,W,*6B
$GPRMC,090426,A,4230.64035,N,08327.32626,W,016.2,268.1,101119,0,W,*6A
$GPRMC,090427,A,4230.64019,N,08327.33249,W,016.2,268.1,101119,0,W,*69
$GPRMC,090428,A,4230.64004,N,08327.33872,W,016.2,268.1,101119,0,W,*68
$GPRMC,090429,A,4230.63989,N,08327.34495,W,016.2,268.1,101119,0,W,*60
$GPRMC,090430,A,4230.63974,N,08327.35118,W,016.2,268.1,101119,0,W,*6B
$GPRMC,090431,A,4230.63959,N,08327.35742,W,016.2,268.1,101119,0,W,*6C
$GPRMC,090432,A,4230.63944,N,08327.36365,W,016.2,268.1,101119,0,W,*61
$GPRMC,090433,A,4230.63929,N,08327.36988,W,016.2,268.1,101119,0,W,*62
$GPRMC,090434,A,4230.63914,N,08327.37611,W,016.2,268.1,101119,0,W,*65
$GPRMC,090435,A,4230.63899,N,08327.38234,W,016.2,268.1,101119,0,W,*6C
$GPRMC,090436,A,4230.63884,N,08327.38857,W,016.2,268.1,101119,0,W,*6C
$GPRMC,090437,A,4230.63869,N,08327.39480,W,016.2,268.1,101119,0,W,*69
$GPRMC,090438,A,4230.63854,N,08327.40103,W,016.2,268.1,101119,0,W,*68
$GPRMC,090439,A,4230.63840,N,08327.40680,W,016.2,267.4,101119,0,W,*6A
$GPRMC,090440,A,4230.63816,N,08327.41390,W,016.2,267.4,101119,0,W,*62
$GPRMC,090441,A,4230.63792,N,08327.42100,W,016.2,267.4,101119,0,W,*68
$GPRMC,090442,A,4230.63768,N,08327.42810,W,016.2,267.4,101119,0,W,*66
$GPRMC,090443,A,4230.63744,N,08327.43519,W,016.2,267.4,101119,0,W,*6C
$GPRMC,090444,A,4230.63720,N,08327.44220,W,016.2,174.4,101119,0,W,*62
$GPRMC,090445,A,4230.63270,N,08327.44160,W,016.2,174.4,101119,0,W,*64
$GPRMC,090446,A,4230.62820,N,08327.44100,W,016.2,176.8,101119,0,W,*61
$GPRMC,090447,A,4230.62325,N,08327.44063,W,016.2,176.8,101119,0,W,*6A
$GPRMC,090448,A,4230.61831,N,08327.44025,W,016.2,176.8,101119,0,W,*6A
$GPRMC,090449,A,4230.61336,N,08327.43988,W,016.2,176.8,101119,0,W,*6E
$GPRMC,090450,A,4230.60842,N,08327.43950,W,016.2,176.8,101119,0,W,*6A
$GPRMC,090451,A,4230.60347,N,08327.43913,W,016.2,176.8,101119,0,W,*62
$GPRMC,090452,A,4230.59853,N,08327.43875,W,016.2,176.8,101119,0,W,*64
$GPRMC,090453,A,4230.59358,N,08327.43838,W,016.2,176.8,101119,0,W,*6C
$GPRMC,090454,A,4230.58860,N,08327.43800,W,016.2,174.2,101119,0,W,*69
$GPRMC,090455,A,4230.58321,N,08327.43725,W,016.2,174.2,101119,0,W,*6E
$GPRMC,090456,A,4230.57781,N,08327.43650,W,016.2,174.2,101119,0,W,*6F
$GPRMC,090457,A,4230.57242,N,08327.43575,W,016.2,174.2,101119,0,W,*60
$GPRMC,090458,A,4230.56700,N,08327.43500,W,016.2,178.7,101119,0,W,*66
$GPRMC,090459,A,4230.56205,N,08327.43485,W,016.2,178.7,101119,0,W,*6B
$GPRMC,090500,A,4230.55711,N,08327.43470,W,016.2,178.7,101119,0,W,*6F
$GPRMC,090501,A,4230.55216,N,08327.43455,W,016.2,178.7,101119,0,W,*6B
$GPRMC,090502,A,4230.54722,N,08327.43440,W,016.2,178.7,101119,0,W,*6F
$GPRMC,090503,A,4230.54227,N,08327.43425,W,016.2,178.7,101119,0,W,*6D
$GPRMC,090504,A,4230.53733,N,08327.43410,W,016.2,178.7,101119,0,W,*6B
$GPRMC,090505,A,4230.53238,N,08327.43395,W,016.2,178.7,101119,0,W,*6E
$GPRMC,090506,A,4230.52740,N,08327.43380,W,016.2,177.7,101119,0,W,*6D
$GPRMC,090507,A,4230.52285,N,08327.43355,W,016.2,177.7,101119,0,W,*68
$GPRMC,090508,A,4230.51831,N,08327.43330,W,016.2,177.7,101119,0,W,*62
$GPRMC,090509,A,4230.51376,N,08327.43305,W,016.2,177.7,101119,0,W,*6D
$GPRMC,090510,A,4230.50922,N,08327.43280,W,016.2,177.7,101119,0,W,*63
$GPRMC,090511,A,4230.50467,N,08327.43255,W,016.2,177.7,101119,0,W,*66
$GPRMC,090512,A,4230.50013,N,08327.43230,W,016.2,177.7,101119,0,W,*61
$GPRMC,090513,A,4230.49558,N,08327.43205,W,016.2,177.7,101119,0,W,*64
$GPRMC,090514,A,4230.49104,N,08327.43180,W,016.2,177.7,101119,0,W,*60
$GPRMC,090515,A,4230.48649,N,08327.43155,W,016.2,177.7,101119,0,W,*66
$GPRMC,090516,A,4230.48195,N,08327.43130,W,016.2,177.7,101119,0,W,*60
$GPRMC,090517,A,4230.47740,N,08327.43105,W,016.2,177.7,101119,0,W,*66
$GPRMC,090518,A,4230.47280,N,08327.43080,W,016.2,177.5,101119,0,W,*6E
$GPRMC,090519,A,4230.46827,N,08327.43053,W,016.2,177.5,101119,0,W,*67
$GPRMC,090520,A,4230.46375,N,08327.43026,W,016.2,177.5,101119,0,W,*63
$GPRMC,090521,A,4230.45922,N,08327.42999,W,016.2,177.5,101119,0,W,*65
$GPRMC,090522,A,4230.45470,N,08327.42972,W,016.2,177.5,101119,0,W,*69
$GPRMC,090523,A,4230.45017,N,08327.42945,W,016.2,177.5,101119,0,W,*69
$GPRMC,090524,A,4230.44565,N,08327.42918,W,016.2,177.5,101119,0,W,*67
$GPRMC,090525,A,4230.44112,N,08327.42891,W,016.2,177.5,101119,0,W,*62
$GPRMC,090526,A,4230.43660,N,08327.42864,W,016.2,177.5,101119,0,W,*6E
$GPRMC,090527,A,4230.43207,N,08327.42837,W,016.2,177.5,101119,0,W,*6C
$GPRMC,090528,A,4230.42755,N,08327.42810,W,016.2,177.5,101119,0,W,*65
$GPRMC,090529,A,4230.42302,N,08327.42783,W,016.2,177.5,101119,0,W,*67
$GPRMC,090530,A,4230.41849,N,08327.42756,W,016.2,177.5,101119,0,W,*60
$GPRMC,090531,A,4230.41397,N,08327.42729,W,016.2,177.5,101119,0,W,*61
$GPRMC,090532,A,4230.40944,N,08327.42702,W,016.2,177.5,101119,0,W,*6E
$GPRMC,090533,A,4230.40492,N,08327.42675,W,016.2,177.5,101119,0,W,*68
$GPRMC,090534,A,4230.40039,N,08327.42648,W,016.2,177.5,101119,0,W,*64
$GPRMC,090535,A,4230.39587,N,08327.42621,W,016.2,177.5,101119,0,W,*64
$GPRMC,090536,A,4230.39134,N,08327.42594,W,016.2,177.5,101119,0,W,*66
$GPRMC,090537,A,4230.38682,N,08327.42568,W,016.2,177.5,101119,0,W,*6F
$GPRMC,090538,A,4230.38220,N,08327.42540,W,016.2,163.6,101119,0,W,*60
$GPRMC,090539,A,4230.37620,N,08327.42300,W,016.2,177.4,101119,0,W,*6F
$GPRMC,090540,A,4230.37140,N,08327.42270,W,016.2,177.4,101119,0,W,*66
$GPRMC,090541,A,4230.36660,N,08327.42240,W,016.2,178.8,101119,0,W,*63
$GPRMC,090542,A,4230.36121,N,08327.42225,W,016.2,178.8,101119,0,W,*61
$GPRMC,090543,A,4230.35581,N,08327.42210,W,016.2,178.8,101119,0,W,*6B
$GPRMC,090544,A,4230.35042,N,08327.42195,W,016.2,178.8,101119,0,W,*68
$GPRMC,090545,A,4230.34500,N,08327.42180,W,016.2,178.0,101119,0,W,*67
$GPRMC,090546,A,4230.33871,N,08327.42150,W,016.2,178.0,101119,0,W,*65
$GPRMC,090547,A,4230.33240,N,08327.42120,W,016.2,189.3,101119,0,W,*66
$GPRMC,090548,A,4230.32700,N,08327.42240,W,016.2,189.3,101119,0,W,*6C
$GPRMC,090549,A,4230.32160,N,08327.42360,W,016.2,192.5,101119,0,W,*62
$GPRMC,090550,A,4230.31710,N,08327.42495,W,016.2,192.5,101119,0,W,*65
$GPRMC,090551,A,4230.31261,N,08327.42630,W,016.2,192.5,101119,0,W,*6A
$GPRMC,090552,A,4230.30811,N,08327.42765,W,016.2,192.5,101119,0,W,*64
$GPRMC,090553,A,4230.30360,N,08327.42900,W,016.2,202.8,101119,0,W,*62
$GPRMC,090554,A,4230.29940,N,08327.43140,W,016.2,202.8,101119,0,W,*68
$GPRMC,090555,A,4230.29520,N,08327.43380,W,016.2,193.8,101119,0,W,*66
$GPRMC,090556,A,4230.29025,N,08327.43545,W,016.2,193.8,101119,0,W,*6A
$GPRMC,090557,A,4230.28531,N,08327.43710,W,016.2,193.8,101119,0,W,*68
$GPRMC,090558,A,4230.28036,N,08327.43875,W,016.2,193.8,101119,0,W,*69
$GPRMC,090559,A,4230.27540,N,08327.44040,W,016.2,188.8,101119,0,W,*60
$GPRMC,090600,A,4230.26971,N,08327.44160,W,016.2,188.8,101119,0,W,*63
$GPRMC,090601,A,4230.26400,N,08327.44280,W,016.2,184.2,101119,0,W,*62
$GPRMC,090602,A,4230.25801,N,08327.44340,W,016.2,184.2,101119,0,W,*62
$GPRMC,090603,A,4230.25200,N,08327.44400,W,016.2,180.0,101119,0,W,*6D
$GPRMC,090604,A,4230.24541,N,08327.44400,W,016.2,180.0,101119,0,W,*69
$GPRMC,090605,A,4230.23880,N,08327.44400,W,016.2,167.0,101119,0,W,*66
$GPRMC,090606,A,4230.23400,N,08327.44250,W,016.2,167.0,101119,0,W,*62
$GPRMC,090607,A,4230.22920,N,08327.44100,W,016.2,162.2,101119,0,W,*6C
$GPRMC,090608,A,4230.22460,N,08327.43900,W,016.2,162.2,101119,0,W,*65
$GPRMC,090609,A,4230.22001,N,08327.43700,W,016.2,162.2,101119,0,W,*69
$GPRMC,090610,A,4230.21540,N,08327.43500,W,016.2,159.8,101119,0,W,*62
$GPRMC,090611,A,4230.21112,N,08327.43286,W,016.2,159.8,101119,0,W,*69
$GPRMC,090612,A,4230.20683,N,08327.43072,W,016.2,159.8,101119,0,W,*6D
$GPRMC,090613,A,4230.20255,N,08327.42858,W,016.2,159.8,101119,0,W,*62
$GPRMC,090614,A,4230.19827,N,08327.42643,W,016.2,159.8,101119,0,W,*64
$GPRMC,090615,A,4230.19398,N,08327.42429,W,016.2,159.8,101119,0,W,*64
$GPRMC,090616,A,4230.18970,N,08327.42215,W,016.2,159.8,101119,0,W,*63
$GPRMC,090617,A,4230.18540,N,08327.42000,W,016.2,163.9,101119,0,W,*63
$GPRMC,090618,A,4230.18080,N,08327.41820,W,016.2,163.9,101119,0,W,*6C
$GPRMC,090619,A,4230.17621,N,08327.41640,W,016.2,163.9,101119,0,W,*67
$GPRMC,090620,A,4230.17160,N,08327.41460,W,016.2,174.3,101119,0,W,*63
$GPRMC,090621,A,4230.16501,N,08327.41370,W,016.2,174.3,101119,0,W,*66
$GPRMC,090622,A,4230.15840,N,08327.41280,W,016.2,153.8,101119,0,W,*6E
$GPRMC,090623,A,4230.15480,N,08327.41040,W,016.2,178.6,101119,0,W,*66
$GPRMC,090624,A,4230.15000,N,08327.41024,W,016.2,178.6,101119,0,W,*6F
$GPRMC,090625,A,4230.14521,N,08327.41007,W,016.2,178.6,101119,0,W,*68
$GPRMC,090626,A,4230.14041,N,08327.40991,W,016.2,178.6,101119,0,W,*6F
$GPRMC,090627,A,4230.13562,N,08327.40975,W,016.2,178.6,101119,0,W,*67
$GPRMC,090628,A,4230.13082,N,08327.40958,W,016.2,178.6,101119,0,W,*6C
$GPRMC,090629,A,4230.12603,N,08327.40942,W,016.2,178.6,101119,0,W,*68
$GPRMC,090630,A,4230.12123,N,08327.40926,W,016.2,178.6,101119,0,W,*67
$GPRMC,090631,A,4230.11644,N,08327.40909,W,016.2,178.6,101119,0,W,*6E
$GPRMC,090632,A,4230.11164,N,08327.40893,W,016.2,178.6,101119,0,W,*6A
$GPRMC,090633,A,4230.10685,N,08327.40877,W,016.2,178.6,101119,0,W,*68
$GPRMC,090634,A,4230.10200,N,08327.40860,W,016.2,178.2,101119,0,W,*64
$GPRMC,090635,A,4230.09720,N,08327.40840,W,016.2,178.2,101119,0,W,*68
$GPRMC,090636,A,4230.09241,N,08327.40820,W,016.2,178.2,101119,0,W,*6F
$GPRMC,090637,A,4230.08761,N,08327.40800,W,016.2,178.2,101119,0,W,*6A
$GPRMC,090638,A,4230.08282,N,08327.40780,W,016.2,178.2,101119,0,W,*6A
$GPRMC,090639,A,4230.07802,N,08327.40760,W,016.2,178.2,101119,0,W,*68
$GPRMC,090640,A,4230.07323,N,08327.40740,W,016.2,178.2,101119,0,W,*6C
$GPRMC,090641,A,4230.06843,N,08327.40720,W,016.2,178.2,101119,0,W,*67
$GPRMC,090642,A,4230.06364,N,08327.40700,W,016.2,178.2,101119,0,W,*68
$GPRMC,090643,A,4230.05880,N,08327.40680,W,016.2,178.4,101119,0,W,*64
$GPRMC,090644,A,4230.05418,N,08327.40663,W,016.2,178.4,101119,0,W,*63
$GPRMC,090645,A,4230.04955,N,08327.40646,W,016.2,178.4,101119,0,W,*60
$GPRMC,090646,A,4230.04493,N,08327.40629,W,016.2,178.4,101119,0,W,*6D
$GPRMC,090647,A,4230.04030,N,08327.40611,W,016.2,178.4,101119,0,W,*6A
$GPRMC,090648,A,4230.03568,N,08327.40594,W,016.2,178.4,101119,0,W,*64
$GPRMC,090649,A,4230.03106,N,08327.40577,W,016.2,178.4,101119,0,W,*64
$GPRMC,090650,A,4230.02643,N,08327.40560,W,016.2,178.4,101119,0,W,*6D
$GPRMC,090651,A,4230.02181,N,08327.40543,W,016.2,178.4,101119,0,W,*64
$GPRMC,090652,A,4230.01718,N,08327.40526,W,016.2,178.4,101119,0,W,*61
$GPRMC,090653,A,4230.01256,N,08327.40509,W,016.2,178.4,101119,0,W,*62
$GPRMC,090654,A,4230.00794,N,08327.40492,W,016.2,178.4,101119,0,W,*6C
$GPRMC,090655,A,4230.00331,N,08327.40474,W,016.2,178.4,101119,0,W,*6E
$GPRMC,090656,A,4229.99869,N,08327.40457,W,016.2,178.4,101119,0,W,*62
$GPRMC,090657,A,4229.99407,N,08327.40440,W,016.2,178.4,101119,0,W,*61
$GPRMC,090658,A,4229.98944,N,08327.40423,W,016.2,178.4,101119,0,W,*60
$GPRMC,090659,A,4229.98482,N,08327.40406,W,016.2,178.4,101119,0,W,*61
$GPRMC,090700,A,4229.98019,N,08327.40389,W,016.2,178.4,101119,0,W,*6A
$GPRMC,090701,A,4229.97557,N,08327.40372,W,016.2,178.4,101119,0,W,*6F
$GPRMC,090702,A,4229.97095,N,08327.40355,W,016.2,178.4,101119,0,W,*62
$GPRMC,090703,A,4229.96632,N,08327.40337,W,016.2,178.4,101119,0,W,*6D
$GPRMC,090704,A,4229.96160,N,08327.40320,W,016.2,179.0,101119,0,W,*69
$GPRMC,090705,A,4229.95668,N,08327.40308,W,016.2,179.0,101119,0,W,*6E
$GPRMC,090706,A,4229.95177,N,08327.40296,W,016.2,179.0,101119,0,W,*62
$GPRMC,090707,A,4229.94685,N,08327.40284,W,016.2,179.0,101119,0,W,*6B
$GPRMC,090708,A,4229.94194,N,08327.40272,W,016.2,179.0,101119,0,W,*6A
$GPRMC,090709,A,4229.93700,N,08327.40260,W,016.2,180.0,101119,0,W,*62
$GPRMC,090710,A,4229.93161,N,08327.40260,W,016.2,180.0,101119,0,W,*6B
$GPRMC,090711,A,4229.92620,N,08327.40260,W,016.2,178.8,101119,0,W,*66
$GPRMC,090712,A,4229.92136,N,08327.40246,W,016.2,178.8,101119,0,W,*61
$GPRMC,090713,A,4229.91652,N,08327.40232,W,016.2,178.8,101119,0,W,*65
$GPRMC,090714,A,4229.91168,N,08327.40219,W,016.2,178.8,101119,0,W,*65
$GPRMC,090715,A,4229.90683,N,08327.40205,W,016.2,178.8,101119,0,W,*6A
$GPRMC,090716,A,4229.90199,N,08327.40191,W,016.2,178.8,101119,0,W,*6B
$GPRMC,090717,A,4229.89715,N,08327.40177,W,016.2,178.8,101119,0,W,*68
$GPRMC,090718,A,4229.89231,N,08327.40163,W,016.2,178.8,101119,0,W,*61
$GPRMC,090719,A,4229.88747,N,08327.40149,W,016.2,178.8,101119,0,W,*6D
$GPRMC,090720,A,4229.88263,N,08327.40136,W,016.2,178.8,101119,0,W,*6C
$GPRMC,090721,A,4229.87779,N,08327.40122,W,016.2,178.8,101119,0,W,*69
$GPRMC,090722,A,4229.87295,N,08327.40108,W,016.2,178.8,101119,0,W,*65
$GPRMC,090723,A,4229.86810,N,08327.40094,W,016.2,178.8,101119,0,W,*66
$GPRMC,090724,A,4229.86320,N,08327.40080,W,016.2,176.7,101119,0,W,*6D
$GPRMC,090725,A,4229.85840,N,08327.40043,W,016.2,176.7,101119,0,W,*6D
$GPRMC,090726,A,4229.85361,N,08327.40005,W,016.2,176.7,101119,0,W,*64
$GPRMC,090727,A,4229.84881,N,08327.39968,W,016.2,176.7,101119,0,W,*6D
$GPRMC,090728,A,4229.84402,N,08327.39930,W,016.2,176.7,101119,0,W,*68
$GPRMC,090729,A,4229.83922,N,08327.39893,W,016.2,176.7,101119,0,W,*69
$GPRMC,090730,A,4229.83443,N,08327.39855,W,016.2,176.7,101119,0,W,*61
$GPRMC,090731,A,4229.82963,N,08327.39818,W,016.2,176.7,101119,0,W,*67
$GPRMC,090732,A,4229.82480,N,08327.39780,W,016.2,180.0,101119,0,W,*64
$GPRMC,090733,A,4229.82000,N,08327.39780,W,016.2,180.0,101119,0,W,*69
$GPRMC,090734,A,4229.81521,N,08327.39780,W,016.2,180.0,101119,0,W,*6B
$GPRMC,090735,A,4229.81041,N,08327.39780,W,016.2,180.0,101119,0,W,*69
$GPRMC,090736,A,4229.80562,N,08327.39780,W,016.2,180.0,101119,0,W,*6F
$GPRMC,090737,A,4229.80082,N,08327.39780,W,016.2,180.0,101119,0,W,*65
$GPRMC,090738,A,4229.79603,N,08327.39780,W,016.2,180.0,101119,0,W,*63
$GPRMC,090739,A,4229.79120,N,08327.39780,W,016.2,178.8,101119,0,W,*6B
$GPRMC,090740,A,4229.78666,N,08327.39767,W,016.2,178.8,101119,0,W,*68
$GPRMC,090741,A,4229.78212,N,08327.39754,W,016.2,178.8,101119,0,W,*6E
$GPRMC,090742,A,4229.77759,N,08327.39741,W,016.2,178.8,101119,0,W,*6C
$GPRMC,090743,A,4229.77305,N,08327.39729,W,016.2,178.8,101119,0,W,*6E
$GPRMC,090744,A,4229.76851,N,08327.39716,W,016.2,178.8,101119,0,W,*6E
$GPRMC,090745,A,4229.76397,N,08327.39703,W,016.2,178.8,101119,0,W,*6A
$GPRMC,090746,A,4229.75943,N,08327.39690,W,016.2,178.8,101119,0,W,*62
$GPRMC,090747,A,4229.75489,N,08327.39677,W,016.2,178.8,101119,0,W,*61
$GPRMC,090748,A,4229.75036,N,08327.39664,W,016.2,178.8,101119,0,W,*6C
$GPRMC,090749,A,4229.74582,N,08327.39652,W,016.2,178.8,101119,0,W,*63
$GPRMC,090750,A,4229.74128,N,08327.39639,W,016.2,178.8,101119,0,W,*62
$GPRMC,090751,A,4229.73674,N,08327.39626,W,016.2,178.8,101119,0,W,*64
$GPRMC,090752,A,4229.73220,N,08327.39613,W,016.2,178.8,101119,0,W,*64
$GPRMC,090753,A,4229.72760,N,08327.39600,W,016.2,177.8,101119,0,W,*68
$GPRMC,090754,A,4229.72280,N,08327.39575,W,016.2,177.8,101119,0,W,*65
$GPRMC,090755,A,4229.71801,N,08327.39550,W,016.2,177.8,101119,0,W,*63
$GPRMC,090756,A,4229.71321,N,08327.39525,W,016.2,177.8,101119,0,W,*6B
$GPRMC,090757,A,4229.70842,N,08327.39500,W,016.2,177.8,101119,0,W,*62
$GPRMC,090758,A,4229.70362,N,08327.39475,W,016.2,177.8,101119,0,W,*67
$GPRMC,090759,A,4229.69883,N,08327.39450,W,016.2,177.8,101119,0,W,*6D
$GPRMC,090800,A,4229.69403,N,08327.39425,W,016.2,177.8,101119,0,W,*68
$GPRMC,090801,A,4229.68924,N,08327.39400,W,016.2,177.8,101119,0,W,*67
$GPRMC,090802,A,4229.68444,N,08327.39375,W,016.2,177.8,101119,0,W,*6A
$GPRMC,090803,A,4229.67965,N,08327.39350,W,016.2,177.8,101119,0,W,*6D
$GPRMC,090804,A,4229.67485,N,08327.39325,W,016.2,177.8,101119,0,W,*6B
$GPRMC,090805,A,4229.67000,N,08327.39300,W,016.2,178.4,101119,0,W,*67
$GPRMC,090806,A,4229.66541,N,08327.39283,W,016.2,178.4,101119,0,W,*6F
$GPRMC,090807,A,4229.66082,N,08327.39265,W,016.2,178.4,101119,0,W,*6C
$GPRMC,090808,A,4229.65623,N,08327.39248,W,016.2,178.4,101119,0,W,*62
$GPRMC,090809,A,4229.65164,N,08327.39231,W,016.2,178.4,101119,0,W,*69
$GPRMC,090810,A,4229.64705,N,08327.39213,W,016.2,178.4,101119,0,W,*61
$GPRMC,090811,A,4229.64246,N,08327.39196,W,016.2,178.4,101119,0,W,*6C
$GPRMC,090812,A,4229.63787,N,08327.39179,W,016.2,178.4,101119,0,W,*61
$GPRMC,090813,A,4229.63328,N,08327.39161,W,016.2,178.4,101119,0,W,*68
$GPRMC,090814,A,4229.62869,N,08327.39144,W,016.2,178.4,101119,0,W,*67
$GPRMC,090815,A,4229.62410,N,08327.39126,W,016.2,178.4,101119,0,W,*60
$GPRMC,090816,A,4229.61951,N,08327.39109,W,016.2,178.4,101119,0,W,*65
$GPRMC,090817,A,4229.61492,N,08327.39092,W,016.2,178.4,101119,0,W,*65
$GPRMC,090818,A,4229.61033,N,08327.39074,W,016.2,178.4,101119,0,W,*6D
$GPRMC,090819,A,4229.60574,N,08327.39057,W,016.2,178.4,101119,0,W,*6A
$GPRMC,090820,A,4229.60115,N,08327.39040,W,016.2,178.4,101119,0,W,*65
$GPRMC,090821,A,4229.59656,N,08327.39022,W,016.2,178.4,101119,0,W,*6A
$GPRMC,090822,A,4229.59197,N,08327.39005,W,016.2,178.4,101119,0,W,*66
$GPRMC,090823,A,4229.58738,N,08327.38988,W,016.2,178.4,101119,0,W,*68
$GPRMC,090824,A,4229.58279,N,08327.38970,W,016.2,178.4,101119,0,W,*68
$GPRMC,090825,A,4229.57820,N,08327.38953,W,016.2,178.4,101119,0,W,*61
$GPRMC,090826,A,4229.57361,N,08327.38936,W,016.2,178.4,101119,0,W,*6F
$GPRMC,090827,A,4229.56902,N,08327.38918,W,016.2,178.4,101119,0,W,*6C
$GPRMC,090828,A,4229.56443,N,08327.38901,W,016.2,178.4,101119,0,W,*63
$GPRMC,090829,A,4229.55984,N,08327.38884,W,016.2,178.4,101119,0,W,*6B
$GPRMC,090830,A,4229.55525,N,08327.38866,W,016.2,178.4,101119,0,W,*68
$GPRMC,090831,A,4229.55066,N,08327.38849,W,016.2,178.4,101119,0,W,*66
$GPRMC,090832,A,4229.54607,N,08327.38832,W,016.2,178.4,101119,0,W,*69
$GPRMC,090833,A,4229.54148,N,08327.38814,W,016.2,178.4,101119,0,W,*60
$GPRMC,090834,A,4229.53689,N,08327.38797,W,016.2,178.4,101119,0,W,*6E
$GPRMC,090835,A,4229.53230,N,08327.38779,W,016.2,178.4,101119,0,W,*69
$GPRMC,090836,A,4229.52771,N,08327.38762,W,016.2,178.4,101119,0,W,*61
$GPRMC,090837,A,4229.52312,N,08327.38745,W,016.2,178.4,101119,0,W,*64
$GPRMC,090838,A,4229.51853,N,08327.38727,W,016.2,178.4,101119,0,W,*62
$GPRMC,090839,A,4229.51394,N,08327.38710,W,016.2,178.4,101119,0,W,*67
$GPRMC,090840,A,4229.50935,N,08327.38693,W,016.2,178.4,101119,0,W,*63
$GPRMC,090841,A,4229.50476,N,08327.38675,W,016.2,178.4,101119,0,W,*60
$GPRMC,090842,A,4229.50017,N,08327.38658,W,016.2,178.4,101119,0,W,*6F
$GPRMC,090843,A,4229.49540,N,08327.38640,W,016.2,178.2,101119,0,W,*6E
$GPRMC,090844,A,4229.49065,N,08327.38620,W,016.2,178.2,101119,0,W,*6D
$GPRMC,090845,A,4229.48591,N,08327.38600,W,016.2,178.2,101119,0,W,*61
$GPRMC,090846,A,4229.48116,N,08327.38580,W,016.2,178.2,101119,0,W,*62
$GPRMC,090847,A,4229.47642,N,08327.38560,W,016.2,178.2,101119,0,W,*64
$GPRMC,090848,A,4229.47167,N,08327.38540,W,016.2,178.2,101119,0,W,*69
$GPRMC,090849,A,4229.46693,N,08327.38520,W,016.2,178.2,101119,0,W,*63
$GPRMC,090850,A,4229.46218,N,08327.38500,W,016.2,178.2,101119,0,W,*6E
$GPRMC,090851,A,4229.45744,N,08327.38480,W,016.2,178.2,101119,0,W,*69
$GPRMC,090852,A,4229.45269,N,08327.38460,W,016.2,178.2,101119,0,W,*6E
$GPRMC,090853,A,4229.44795,N,08327.38440,W,016.2,178.2,101119,0,W,*6A
$GPRMC,090854,A,4229.44320,N,08327.38420,W,016.2,178.2,101119,0,W,*61
$GPRMC,090855,A,4229.43840,N,08327.38400,W,016.2,178.1,101119,0,W,*6B
$GPRMC,090856,A,4229.43382,N,08327.38379,W,016.2,178.1,101119,0,W,*64
$GPRMC,090857,A,4229.42923,N,08327.38358,W,016.2,178.1,101119,0,W,*66
$GPRMC,090858,A,4229.42465,N,08327.38337,W,016.2,178.1,101119,0,W,*6F
$GPRMC,090859,A,4229.42007,N,08327.38315,W,016.2,178.1,101119,0,W,*6E
$GPRMC,090900,A,4229.41548,N,08327.38294,W,016.2,178.1,101119,0,W,*66
$GPRMC,090901,A,4229.41090,N,08327.38273,W,016.2,178.1,101119,0,W,*6E
$GPRMC,090902,A,4229.40631,N,08327.38252,W,016.2,178.1,101119,0,W,*62
$GPRMC,090903,A,4229.40173,N,08327.38231,W,016.2,178.1,101119,0,W,*67
$GPRMC,090904,A,4229.39715,N,08327.38210,W,016.2,178.1,101119,0,W,*6B
$GPRMC,090905,A,4229.39256,N,08327.38188,W,016.2,178.1,101119,0,W,*6A
$GPRMC,090906,A,4229.38798,N,08327.38167,W,016.2,178.1,101119,0,W,*6E
$GPRMC,090907,A,4229.38340,N,08327.38146,W,016.2,178.1,101119,0,W,*6D
$GPRMC,090908,A,4229.37881,N,08327.38125,W,016.2,178.1,101119,0,W,*6E
$GPRMC,090909,A,4229.37423,N,08327.38104,W,016.2,178.1,101119,0,W,*68
$GPRMC,090910,A,4229.36965,N,08327.38083,W,016.2,178.1,101119,0,W,*60
$GPRMC,090911,A,4229.36506,N,08327.38062,W,016.2,178.1,101119,0,W,*67
$GPRMC,090912,A,4229.36040,N,08327.38040,W,016.2,177.4,101119,0,W,*69
$GPRMC,090913,A,4229.35578,N,08327.38011,W,016.2,177.4,101119,0,W,*61
$GPRMC,090914,A,4229.35115,N,08327.37983,W,016.2,177.4,101119,0,W,*64
$GPRMC,090915,A,4229.34653,N,08327.37954,W,016.2,177.4,101119,0,W,*6B
$GPRMC,090916,A,4229.34190,N,08327.37926,W,016.2,177.4,101119,0,W,*65
$GPRMC,090917,A,4229.33728,N,08327.37897,W,016.2,177.4,101119,0,W,*6D
$GPRMC,090918,A,4229.33266,N,08327.37869,W,016.2,177.4,101119,0,W,*6C
$GPRMC,090919,A,4229.32803,N,08327.37840,W,016.2,177.4,101119,0,W,*6E
$GPRMC,090920,A,4229.32341,N,08327.37812,W,016.2,177.4,101119,0,W,*6E
$GPRMC,090921,A,4229.31878,N,08327.37783,W,016.2,177.4,101119,0,W,*6A
$GPRMC,090922,A,4229.31416,N,08327.37755,W,016.2,177.4,101119,0,W,*66
$GPRMC,090923,A,4229.30954,N,08327.37726,W,016.2,177.4,101119,0,W,*69
$GPRMC,090924,A,4229.30491,N,08327.37697,W,016.2,177.4,101119,0,W,*61
$GPRMC,090925,A,4229.30029,N,08327.37669,W,016.2,177.4,101119,0,W,*66
$GPRMC,090926,A,4229.29566,N,08327.37640,W,016.2,177.4,101119,0,W,*68
$GPRMC,090927,A,4229.29104,N,08327.37612,W,016.2,177.4,101119,0,W,*6E
$GPRMC,090928,A,4229.28642,N,08327.37583,W,016.2,177.4,101119,0,W,*6E
$GPRMC,090929,A,4229.28179,N,08327.37555,W,016.2,177.4,101119,0,W,*6B
$GPRMC,090930,A,4229.27717,N,08327.37526,W,016.2,177.4,101119,0,W,*66
$GPRMC,090931,A,4229.27255,N,08327.37498,W,016.2,177.4,101119,0,W,*60
$GPRMC,090932,A,4229.26792,N,08327.37469,W,016.2,177.4,101119,0,W,*62
$GPRMC,090933,A,4229.26320,N,08327.37440,W,016.2,176.8,101119,0,W,*68
$GPRMC,090934,A,4229.25860,N,08327.37405,W,016.2,176.8,101119,0,W,*62
$GPRMC,090935,A,4229.25400,N,08327.37370,W,016.2,176.8,101119,0,W,*6C
$GPRMC,090936,A,4229.24939,N,08327.37336,W,016.2,176.8,101119,0,W,*6B
$GPRMC,090937,A,4229.24479,N,08327.37301,W,016.2,176.8,101119,0,W,*67
$GPRMC,090938,A,4229.24019,N,08327.37266,W,016.2,176.8,101119,0,W,*6A
$GPRMC,090939,A,4229.23559,N,08327.37231,W,016.2,176.8,101119,0,W,*6F
$GPRMC,090940,A,4229.23099,N,08327.37196,W,016.2,176.8,101119,0,W,*66
$GPRMC,090941,A,4229.22639,N,08327.37162,W,016.2,176.8,101119,0,W,*61
$GPRMC,090942,A,4229.22178,N,08327.37127,W,016.2,176.8,101119,0,W,*61
$GPRMC,090943,A,4229.21718,N,08327.37092,W,016.2,176.8,101119,0,W,*6C
$GPRMC,090944,A,4229.21258,N,08327.37057,W,016.2,176.8,101119,0,W,*63
$GPRMC,090945,A,4229.20798,N,08327.37022,W,016.2,176.8,101119,0,W,*68
$GPRMC,090946,A,4229.20338,N,08327.36988,W,016.2,176.8,101119,0,W,*6D
$GPRMC,090947,A,4229.19877,N,08327.36953,W,016.2,176.8,101119,0,W,*60
$GPRMC,090948,A,4229.19417,N,08327.36918,W,016.2,176.8,101119,0,W,*6A
$GPRMC,090949,A,4229.18957,N,08327.36883,W,016.2,176.8,101119,0,W,*60
$GPRMC,090950,A,4229.18497,N,08327.36848,W,016.2,176.8,101119,0,W,*6E
$GPRMC,090951,A,4229.18037,N,08327.36814,W,016.2,176.8,101119,0,W,*68
$GPRMC,090952,A,4229.17576,N,08327.36779,W,016.2,176.8,101119,0,W,*60
$GPRMC,090953,A,4229.17116,N,08327.36744,W,016.2,176.8,101119,0,W,*6D
$GPRMC,090954,A,4229.16656,N,08327.36709,W,016.2,176.8,101119,0,W,*61
$GPRMC,090955,A,4229.16196,N,08327.36674,W,016.2,176.8,101119,0,W,*60
$GPRMC,090956,A,4229.15736,N,08327.36639,W,016.2,176.8,101119,0,W,*65
$GPRMC,090957,A,4229.15276,N,08327.36605,W,016.2,176.8,101119,0,W,*6A
$GPRMC,090958,A,4229.14815,N,08327.36570,W,016.2,176.8,101119,0,W,*6A
$GPRMC,090959,A,4229.14355,N,08327.36535,W,016.2,176.8,101119,0,W,*65
$GPRMC,091000,A,4229.13895,N,08327.36500,W,016.2,176.8,101119,0,W,*67
$GPRMC,091001,A,4229.13435,N,08327.36465,W,016.2,176.8,101119,0,W,*62
$GPRMC,091002,A,4229.12975,N,08327.36431,W,016.2,176.8,101119,0,W,*68
$GPRMC,091003,A,4229.12514,N,08327.36396,W,016.2,176.8,101119,0,W,*68
$GPRMC,091004,A,4229.12040,N,08327.36360,W,016.2,177.5,101119,0,W,*6E
$GPRMC,091005,A,4229.11590,N,08327.36334,W,016.2,177.5,101119,0,W,*65
$GPRMC,091006,A,4229.11141,N,08327.36308,W,016.2,177.5,101119,0,W,*61
$GPRMC,091007,A,4229.10691,N,08327.36281,W,016.2,177.5,101119,0,W,*6B
$GPRMC,091008,A,4229.10242,N,08327.36255,W,016.2,177.5,101119,0,W,*67
$GPRMC,091009,A,4229.09792,N,08327.36229,W,016.2,177.5,101119,0,W,*6D
$GPRMC,091010,A,4229.09343,N,08327.36203,W,016.2,177.5,101119,0,W,*65
$GPRMC,091011,A,4229.08893,N,08327.36176,W,016.2,177.5,101119,0,W,*62
$GPRMC,091012,A,4229.08444,N,08327.36150,W,016.2,177.5,101119,0,W,*63
$GPRMC,091013,A,4229.07994,N,08327.36124,W,016.2,177.5,101119,0,W,*6E
$GPRMC,091014,A,4229.07545,N,08327.36098,W,016.2,177.5,101119,0,W,*6F
$GPRMC,091015,A,4229.07095,N,08327.36072,W,016.2,177.5,101119,0,W,*62
$GPRMC,091016,A,4229.06645,N,08327.36045,W,016.2,177.5,101119,0,W,*6F
$GPRMC,091017,A,4229.06196,N,08327.36019,W,016.2,177.5,101119,0,W,*6E
$GPRMC,091018,A,4229.05746,N,08327.35993,W,016.2,177.5,101119,0,W,*61
$GPRMC,091019,A,4229.05297,N,08327.35967,W,016.2,177.5,101119,0,W,*62
$GPRMC,091020,A,4229.04840,N,08327.35940,W,016.2,177.1,101119,0,W,*68
$GPRMC,091021,A,4229.04368,N,08327.35908,W,016.2,177.1,101119,0,W,*64
$GPRMC,091022,A,4229.03897,N,08327.35876,W,016.2,177.1,101119,0,W,*63
$GPRMC,091023,A,4229.03425,N,08327.35844,W,016.2,177.1,101119,0,W,*66
$GPRMC,091024,A,4229.02954,N,08327.35812,W,016.2,177.1,101119,0,W,*68
$GPRMC,091025,A,4229.02482,N,08327.35780,W,016.2,177.1,101119,0,W,*6B
$GPRMC,091026,A,4229.02011,N,08327.35748,W,016.2,177.1,101119,0,W,*62
$GPRMC,091027,A,4229.01539,N,08327.35716,W,016.2,177.1,101119,0,W,*64
$GPRMC,091028,A,4229.01068,N,08327.35684,W,016.2,177.1,101119,0,W,*60
$GPRMC,091029,A,4229.00596,N,08327.35652,W,016.2,177.1,101119,0,W,*6F
$GPRMC,091030,A,4229.00125,N,08327.35620,W,016.2,177.1,101119,0,W,*6E
$GPRMC,091031,A,4228.99653,N,08327.35588,W,016.2,177.1,101119,0,W,*69
$GPRMC,091032,A,4228.99182,N,08327.35556,W,016.2,177.1,101119,0,W,*62
$GPRMC,091033,A,4228.98710,N,08327.35524,W,016.2,177.1,101119,0,W,*6A
$GPRMC,091034,A,4228.98239,N,08327.35492,W,016.2,177.1,101119,0,W,*6F
$GPRMC,091035,A,4228.97760,N,08327.35460,W,016.2,177.0,101119,0,W,*64
$GPRMC,091036,A,4228.97284,N,08327.35426,W,016.2,177.0,101119,0,W,*6A
$GPRMC,091037,A,4228.96808,N,08327.35393,W,016.2,177.0,101119,0,W,*6D
$GPRMC,091038,A,4228.96333,N,08327.35359,W,016.2,177.0,101119,0,W,*67
$GPRMC,091039,A,4228.95857,N,08327.35325,W,016.2,177.0,101119,0,W,*67
$GPRMC,091040,A,4228.95381,N,08327.35291,W,016.2,177.0,101119,0,W,*67
$GPRMC,091041,A,4228.94905,N,08327.35258,W,016.2,177.0,101119,0,W,*64
$GPRMC,091042,A,4228.94430,N,08327.35224,W,016.2,177.0,101119,0,W,*67
$GPRMC,091043,A,4228.93954,N,08327.35190,W,016.2,177.0,101119,0,W,*62
$GPRMC,091044,A,4228.93478,N,08327.35157,W,016.2,177.0,101119,0,W,*6D
$GPRMC,091045,A,4228.93002,N,08327.35123,W,016.2,177.0,101119,0,W,*66
$GPRMC,091046,A,4228.92526,N,08327.35089,W,016.2,177.0,101119,0,W,*66
$GPRMC,091047,A,4228.92051,N,08327.35055,W,016.2,177.0,101119,0,W,*63
$GPRMC,091048,A,4228.91575,N,08327.35022,W,016.2,177.0,101119,0,W,*6C
$GPRMC,091049,A,4228.91099,N,08327.34988,W,016.2,177.0,101119,0,W,*62
$GPRMC,091050,A,4228.90623,N,08327.34954,W,016.2,177.0,101119,0,W,*6D
$GPRMC,091051,A,4228.90140,N,08327.34920,W,016.2,266.7,101119,0,W,*69
$GPRMC,091052,A,4228.90114,N,08327.35544,W,016.2,266.7,101119,0,W,*64
$GPRMC,091053,A,4228.90087,N,08327.36168,W,016.2,266.7,101119,0,W,*67
$GPRMC,091054,A,4228.90061,N,08327.36792,W,016.2,266.7,101119,0,W,*6B
$GPRMC,091055,A,4228.90035,N,08327.37417,W,016.2,266.7,101119,0,W,*64
$GPRMC,091056,A,4228.90008,N,08327.38041,W,016.2,266.7,101119,0,W,*61
$GPRMC,091057,A,4228.89982,N,08327.38665,W,016.2,266.7,101119,0,W,*63
$GPRMC,091058,A,4228.89956,N,08327.39289,W,016.2,266.7,101119,0,W,*62
$GPRMC,091059,A,4228.89930,N,08327.39913,W,016.2,266.7,101119,0,W,*6B
$GPRMC,091100,A,4228.89903,N,08327.40537,W,016.2,266.7,101119,0,W,*62
$GPRMC,091101,A,4228.89877,N,08327.41161,W,016.2,266.7,101119,0,W,*67
$GPRMC,091102,A,4228.89851,N,08327.41786,W,016.2,266.7,101119,0,W,*6F
$GPRMC,091103,A,4228.89824,N,08327.42410,W,016.2,266.7,101119,0,W,*63
$GPRMC,091104,A,4228.89798,N,08327.43034,W,016.2,266.7,101119,0,W,*6F
$GPRMC,091105,A,4228.89772,N,08327.43658,W,016.2,266.7,101119,0,W,*66
$GPRMC,091106,A,4228.89745,N,08327.44282,W,016.2,266.7,101119,0,W,*65
$GPRMC,091107,A,4228.89719,N,08327.44906,W,016.2,266.7,101119,0,W,*6A
$GPRMC,091108,A,4228.89693,N,08327.45530,W,016.2,266.7,101119,0,W,*6E
$GPRMC,091109,A,4228.89666,N,08327.46155,W,016.2,266.7,101119,0,W,*61
$GPRMC,091110,A,4228.89640,N,08327.46779,W,016.2,266.7,101119,0,W,*65
$GPRMC,091111,A,4228.89614,N,08327.47403,W,016.2,266.7,101119,0,W,*6A
$GPRMC,091112,A,4228.89587,N,08327.48027,W,016.2,266.7,101119,0,W,*6D
$GPRMC,091113,A,4228.89561,N,08327.48651,W,016.2,266.7,101119,0,W,*63
$GPRMC,091114,A,4228.89535,N,08327.49275,W,016.2,266.7,101119,0,W,*66
$GPRMC,091115,A,4228.89509,N,08327.49899,W,016.2,266.7,101119,0,W,*60
$GPRMC,091116,A,4228.89482,N,08327.50524,W,016.2,266.7,101119,0,W,*62
$GPRMC,091117,A,4228.89456,N,08327.51148,W,016.2,266.7,101119,0,W,*65
$GPRMC,091118,A,4228.89430,N,08327.51772,W,016.2,266.7,101119,0,W,*65
$GPRMC,091119,A,4228.89403,N,08327.52396,W,016.2,266.7,101119,0,W,*69
$GPRMC,091120,A,4228.89377,N,08327.53020,W,016.2,266.7,101119,0,W,*68
$GPRMC,091121,A,4228.89351,N,08327.53644,W,016.2,266.7,101119,0,W,*69
$GPRMC,091122,A,4228.89324,N,08327.54268,W,016.2,266.7,101119,0,W,*65
$GPRMC,091123,A,4228.89300,N,08327.54840,W,016.2,266.9,101119,0,W,*6C
$GPRMC,091124,A,4228.89276,N,08327.55457,W,016.2,266.9,101119,0,W,*60
$GPRMC,091125,A,4228.89251,N,08327.56074,W,016.2,266.9,101119,0,W,*62
$GPRMC,091126,A,4228.89227,N,08327.56691,W,016.2,266.9,101119,0,W,*6D
$GPRMC,091127,A,4228.89203,N,08327.57308,W,016.2,266.9,101119,0,W,*6E
$GPRMC,091128,A,4228.89178,N,08327.57925,W,016.2,266.9,101119,0,W,*6B
$GPRMC,091129,A,4228.89154,N,08327.58542,W,016.2,266.9,101119,0,W,*66
$GPRMC,091130,A,4228.89130,N,08327.59159,W,016.2,266.9,101119,0,W,*63
$GPRMC,091131,A,4228.89106,N,08327.59776,W,016.2,266.9,101119,0,W,*6C
$GPRMC,091132,A,4228.89081,N,08327.60393,W,016.2,266.9,101119,0,W,*64
$GPRMC,091133,A,4228.89057,N,08327.61009,W,016.2,266.9,101119,0,W,*6F
$GPRMC,091134,A,4228.89033,N,08327.61626,W,016.2,266.9,101119,0,W,*61
$GPRMC,091135,A,4228.89008,N,08327.62243,W,016.2,266.9,101119,0,W,*6C
$GPRMC,091136,A,4228.88984,N,08327.62860,W,016.2,266.9,101119,0,W,*68
$GPRMC,091137,A,4228.88960,N,08327.63477,W,016.2,266.9,101119,0,W,*68
$GPRMC,091138,A,4228.88935,N,08327.64094,W,016.2,266.9,101119,0,W,*69
$GPRMC,091139,A,4228.88911,N,08327.64711,W,016.2,266.9,101119,0,W,*64
$GPRMC,091140,A,4228.88887,N,08327.65328,W,016.2,266.9,101119,0,W,*6B
$GPRMC,091141,A,4228.88862,N,08327.65945,W,016.2,266.9,101119,0,W,*60
$GPRMC,091142,A,4228.88838,N,08327.66562,W,016.2,266.9,101119,0,W,*66
$GPRMC,091143,A,4228.88814,N,08327.67179,W,016.2,266.9,101119,0,W,*66
$GPRMC,091144,A,4228.88790,N,08327.67796,W,016.2,266.9,101119,0,W,*65
$GPRMC,091145,A,4228.88765,N,08327.68413,W,016.2,266.9,101119,0,W,*6F
$GPRMC,091146,A,4228.88741,N,08327.69030,W,016.2,266.9,101119,0,W,*6E
$GPRMC,091147,A,4228.88717,N,08327.69647,W,016.2,266.9,101119,0,W,*6A
$GPRMC,091148,A,4228.88692,N,08327.70264,W,016.2,266.9,101119,0,W,*64
$GPRMC,091149,A,4228.88668,N,08327.70881,W,016.2,266.9,101119,0,W,*61
$GPRMC,091150,A,4228.88644,N,08327.71498,W,016.2,266.9,101119,0,W,*62
$GPRMC,091151,A,4228.88619,N,08327.72114,W,016.2,266.9,101119,0,W,*69
$GPRMC,091152,A,4228.88595,N,08327.72731,W,016.2,266.9,101119,0,W,*6C
$GPRMC,091153,A,4228.88571,N,08327.73348,W,016.2,266.9,101119,0,W,*6C
$GPRMC,091154,A,4228.88546,N,08327.73965,W,016.2,266.9,101119,0,W,*6A
$GPRMC,091155,A,4228.88522,N,08327.74582,W,016.2,266.9,101119,0,W,*6B
$GPRMC,091156,A,4228.88498,N,08327.75199,W,016.2,266.9,101119,0,W,*67
$GPRMC,091157,A,4228.88474,N,08327.75816,W,016.2,266.9,101119,0,W,*6A
$GPRMC,091158,A,4228.88449,N,08327.76433,W,016.2,266.9,101119,0,W,*63
$GPRMC,091159,A,4228.88425,N,08327.77050,W,016.2,266.9,101119,0,W,*68
$GPRMC,091200,A,4228.88401,N,08327.77667,W,016.2,266.9,101119,0,W,*63
$GPRMC,091201,A,4228.88376,N,08327.78284,W,016.2,266.9,101119,0,W,*63
$GPRMC,091202,A,4228.88352,N,08327.78901,W,016.2,266.9,101119,0,W,*60
$GPRMC,091203,A,4228.88328,N,08327.79518,W,016.2,266.9,101119,0,W,*69
$GPRMC,091204,A,4228.88303,N,08327.80135,W,016.2,266.9,101119,0,W,*6A
$GPRMC,091205,A,4228.88279,N,08327.80752,W,016.2,266.9,101119,0,W,*60
$GPRMC,091206,A,4228.88255,N,08327.81369,W,016.2,266.9,101119,0,W,*60
$GPRMC,091207,A,4228.88231,N,08327.81986,W,016.2,266.9,101119,0,W,*68
$GPRMC,091208,A,4228.88206,N,08327.82603,W,016.2,266.9,101119,0,W,*62
$GPRMC,091209,A,4228.88182,N,08327.83219,W,016.2,266.9,101119,0,W,*62
$GPRMC,091210,A,4228.88160,N,08327.83760,W,016.2,266.8,101119,0,W,*6C
$GPRMC,091211,A,4228.88135,N,08327.84377,W,016.2,266.8,101119,0,W,*68
$GPRMC,091212,A,4228.88109,N,08327.84995,W,016.2,266.8,101119,0,W,*62
$GPRMC,091213,A,4228.88084,N,08327.85612,W,016.2,266.8,101119,0,W,*66
$GPRMC,091214,A,4228.88059,N,08327.86230,W,016.2,266.8,101119,0,W,*66
$GPRMC,091215,A,4228.88033,N,08327.86847,W,016.2,266.8,101119,0,W,*61
$GPRMC,091216,A,4228.88008,N,08327.87464,W,016.2,266.8,101119,0,W,*66
$GPRMC,091217,A,4228.87983,N,08327.88082,W,016.2,266.8,101119,0,W,*61
$GPRMC,091218,A,4228.87957,N,08327.88699,W,016.2,266.8,101119,0,W,*6B
$GPRMC,091219,A,4228.87932,N,08327.89317,W,016.2,266.8,101119,0,W,*6B
$GPRMC,091220,A,4228.87907,N,08327.89934,W,016.2,266.8,101119,0,W,*6C
$GPRMC,091221,A,4228.87881,N,08327.90552,W,016.2,266.8,101119,0,W,*66
$GPRMC,091222,A,4228.87856,N,08327.91169,W,016.2,266.8,101119,0,W,*62
$GPRMC,091223,A,4228.87831,N,08327.91786,W,016.2,266.8,101119,0,W,*65
$GPRMC,091224,A,4228.87805,N,08327.92404,W,016.2,266.8,101119,0,W,*6F
$GPRMC,091225,A,4228.87780,N,08327.93021,W,016.2,266.8,101119,0,W,*6E
$GPRMC,091226,A,4228.87755,N,08327.93639,W,016.2,266.8,101119,0,W,*6A
$GPRMC,091227,A,4228.87729,N,08327.94256,W,016.2,266.8,101119,0,W,*6A
$GPRMC,091228,A,4228.87704,N,08327.94873,W,016.2,266.8,101119,0,W,*67
$GPRMC,091229,A,4228.87680,N,08327.95460,W,016.2,268.3,101119,0,W,*61
$GPRMC,091230,A,4228.87666,N,08327.96085,W,016.2,268.3,101119,0,W,*6D
$GPRMC,091231,A,4228.87652,N,08327.96709,W,016.2,268.3,101119,0,W,*68
$GPRMC,091232,A,4228.87638,N,08327.97334,W,016.2,268.3,101119,0,W,*6C
$GPRMC,091233,A,4228.87624,N,08327.97959,W,016.2,268.3,101119,0,W,*61
$GPRMC,091234,A,4228.87611,N,08327.98584,W,016.2,268.3,101119,0,W,*63
$GPRMC,091235,A,4228.87597,N,08327.99208,W,016.2,268.3,101119,0,W,*6D
$GPRMC,091236,A,4228.87583,N,08327.99833,W,016.2,268.3,101119,0,W,*69
$GPRMC,091237,A,4228.87569,N,08328.00458,W,016.2,268.3,101119,0,W,*62
$GPRMC,091238,A,4228.87555,N,08328.01083,W,016.2,268.3,101119,0,W,*61
$GPRMC,091239,A,4228.87541,N,08328.01707,W,016.2,268.3,101119,0,W,*6E
$GPRMC,091240,A,4228.87527,N,08328.02332,W,016.2,268.3,101119,0,W,*61
$GPRMC,091241,A,4228.87513,N,08328.02957,W,016.2,268.3,101119,0,W,*6E
$GPRMC,091242,A,4228.87500,N,08328.03560,W,016.2,356.5,101119,0,W,*6C
$GPRMC,091243,A,4228.87980,N,08328.03600,W,016.2,356.5,101119,0,W,*6C
$GPRMC,091244,A,4228.88459,N,08328.03640,W,016.2,356.5,101119,0,W,*69
$GPRMC,091245,A,4228.88940,N,08328.03680,W,016.2,087.9,101119,0,W,*62
$GPRMC,091246,A,4228.88960,N,08328.02938,W,016.2,087.9,101119,0,W,*6E
$GPRMC,091247,A,4228.88980,N,08328.02196,W,016.2,087.9,101119,0,W,*6D
$GPRMC,091248,A,4228.89000,N,08328.01460,W,016.2,358.9,101119,0,W,*6C
$GPRMC,091249,A,4228.89554,N,08328.01475,W,016.2,358.9,101119,0,W,*6D
$GPRMC,091250,A,4228.90109,N,08328.01490,W,016.2,358.9,101119,0,W,*6A
$GPRMC,091251,A,4228.90663,N,08328.01505,W,016.2,358.9,101119,0,W,*6D
